{"type":"FeatureCollection","features":[{"type":"Feature","properties":{"STATION":"AIRCRAFT","COM_CAPAC":"201","X":"144.760809","Y":"-37.866602"},"geometry":{"type":"Point","coordinates":[144.760809,-37.866602]}},{"type":"Feature","properties":{"STATION":"ALBION","COM_CAPAC":"673","X":"144.824709","Y":"-37.777655"},"geometry":{"type":"Point","coordinates":[144.824709,-37.777655]}},{"type":"Feature","properties":{"STATION":"ALPHINGTON","COM_CAPAC":"119","X":"145.031251","Y":"-37.778396"},"geometry":{"type":"Point","coordinates":[145.031251,-37.778396]}},{"type":"Feature","properties":{"STATION":"ASHBURTON","COM_CAPAC":"252","X":"145.081341","Y":"-37.861968"},"geometry":{"type":"Point","coordinates":[145.081341,-37.861968]}},{"type":"Feature","properties":{"STATION":"ASPENDALE","COM_CAPAC":"78","X":"145.102151","Y":"-38.027222"},"geometry":{"type":"Point","coordinates":[145.102151,-38.027222]}},{"type":"Feature","properties":{"STATION":"BAXTER","COM_CAPAC":"15","X":"145.160525","Y":"-38.194047"},"geometry":{"type":"Point","coordinates":[145.160525,-38.194047]}},{"type":"Feature","properties":{"STATION":"BAYSWATER","COM_CAPAC":"353","X":"145.268137","Y":"-37.841728"},"geometry":{"type":"Point","coordinates":[145.268137,-37.841728]}},{"type":"Feature","properties":{"STATION":"BEACONSFIELD","COM_CAPAC":"341","X":"145.366069","Y":"-38.050828"},"geometry":{"type":"Point","coordinates":[145.366069,-38.050828]}},{"type":"Feature","properties":{"STATION":"BELGRAVE","COM_CAPAC":"170","X":"145.355291","Y":"-37.909099"},"geometry":{"type":"Point","coordinates":[145.355291,-37.909099]}},{"type":"Feature","properties":{"STATION":"BELL","COM_CAPAC":"75","X":"145.000152","Y":"-37.745566"},"geometry":{"type":"Point","coordinates":[145.000152,-37.745566]}},{"type":"Feature","properties":{"STATION":"BENTLEIGH","COM_CAPAC":"109","X":"145.036991","Y":"-37.917427"},"geometry":{"type":"Point","coordinates":[145.036991,-37.917427]}},{"type":"Feature","properties":{"STATION":"BERWICK","COM_CAPAC":"937","X":"145.345721","Y":"-38.04041"},"geometry":{"type":"Point","coordinates":[145.345721,-38.04041]}},{"type":"Feature","properties":{"STATION":"BITTERN","COM_CAPAC":"50","X":"145.178026","Y":"-38.33739"},"geometry":{"type":"Point","coordinates":[145.178026,-38.33739]}},{"type":"Feature","properties":{"STATION":"BLACKBURN","COM_CAPAC":"112","X":"145.150014","Y":"-37.820069"},"geometry":{"type":"Point","coordinates":[145.150014,-37.820069]}},{"type":"Feature","properties":{"STATION":"BONBEACH","COM_CAPAC":"35","X":"145.119682","Y":"-38.062945"},"geometry":{"type":"Point","coordinates":[145.119682,-38.062945]}},{"type":"Feature","properties":{"STATION":"BORONIA","COM_CAPAC":"394","X":"145.284381","Y":"-37.860453"},"geometry":{"type":"Point","coordinates":[145.284381,-37.860453]}},{"type":"Feature","properties":{"STATION":"BOX HILL","COM_CAPAC":"0","X":"145.121427","Y":"-37.819219"},"geometry":{"type":"Point","coordinates":[145.121427,-37.819219]}},{"type":"Feature","properties":{"STATION":"BRIGHTON BEACH","COM_CAPAC":"170","X":"144.989157","Y":"-37.926482"},"geometry":{"type":"Point","coordinates":[144.989157,-37.926482]}},{"type":"Feature","properties":{"STATION":"BROADMEADOWS","COM_CAPAC":"210","X":"144.919615","Y":"-37.683051"},"geometry":{"type":"Point","coordinates":[144.919615,-37.683051]}},{"type":"Feature","properties":{"STATION":"BRUNSWICK","COM_CAPAC":"7","X":"144.959591","Y":"-37.767718"},"geometry":{"type":"Point","coordinates":[144.959591,-37.767718]}},{"type":"Feature","properties":{"STATION":"BURNLEY","COM_CAPAC":"4","X":"145.007553","Y":"-37.827558"},"geometry":{"type":"Point","coordinates":[145.007553,-37.827558]}},{"type":"Feature","properties":{"STATION":"BURWOOD","COM_CAPAC":"184","X":"145.080508","Y":"-37.851561"},"geometry":{"type":"Point","coordinates":[145.080508,-37.851561]}},{"type":"Feature","properties":{"STATION":"CAMBERWELL","COM_CAPAC":"75","X":"145.058692","Y":"-37.826564"},"geometry":{"type":"Point","coordinates":[145.058692,-37.826564]}},{"type":"Feature","properties":{"STATION":"CANTERBURY","COM_CAPAC":"125","X":"145.081226","Y":"-37.824489"},"geometry":{"type":"Point","coordinates":[145.081226,-37.824489]}},{"type":"Feature","properties":{"STATION":"CARDINIA ROAD","COM_CAPAC":"328","X":"145.437794","Y":"-38.071288"},"geometry":{"type":"Point","coordinates":[145.437794,-38.071288]}},{"type":"Feature","properties":{"STATION":"CARNEGIE","COM_CAPAC":"166","X":"145.058576","Y":"-37.886237"},"geometry":{"type":"Point","coordinates":[145.058576,-37.886237]}},{"type":"Feature","properties":{"STATION":"CARRUM","COM_CAPAC":"220","X":"145.122414","Y":"-38.074896"},"geometry":{"type":"Point","coordinates":[145.122414,-38.074896]}},{"type":"Feature","properties":{"STATION":"CAULFIELD","COM_CAPAC":"114","X":"145.042522","Y":"-37.877457"},"geometry":{"type":"Point","coordinates":[145.042522,-37.877457]}},{"type":"Feature","properties":{"STATION":"CHATHAM","COM_CAPAC":"8","X":"145.088653","Y":"-37.824304"},"geometry":{"type":"Point","coordinates":[145.088653,-37.824304]}},{"type":"Feature","properties":{"STATION":"CHELSEA","COM_CAPAC":"198","X":"145.116036","Y":"-38.051959"},"geometry":{"type":"Point","coordinates":[145.116036,-38.051959]}},{"type":"Feature","properties":{"STATION":"CHELTENHAM","COM_CAPAC":"356","X":"145.054557","Y":"-37.966653"},"geometry":{"type":"Point","coordinates":[145.054557,-37.966653]}},{"type":"Feature","properties":{"STATION":"CLAYTON","COM_CAPAC":"298","X":"145.120531","Y":"-37.924683"},"geometry":{"type":"Point","coordinates":[145.120531,-37.924683]}},{"type":"Feature","properties":{"STATION":"CLIFTON HILL","COM_CAPAC":"90","X":"144.995417","Y":"-37.788654"},"geometry":{"type":"Point","coordinates":[144.995417,-37.788654]}},{"type":"Feature","properties":{"STATION":"COBURG","COM_CAPAC":"350","X":"144.963342","Y":"-37.742341"},"geometry":{"type":"Point","coordinates":[144.963342,-37.742341]}},{"type":"Feature","properties":{"STATION":"COOLAROO","COM_CAPAC":"486","X":"144.926053","Y":"-37.661001"},"geometry":{"type":"Point","coordinates":[144.926053,-37.661001]}},{"type":"Feature","properties":{"STATION":"CRAIGIEBURN","COM_CAPAC":"433","X":"144.943309","Y":"-37.601925"},"geometry":{"type":"Point","coordinates":[144.943309,-37.601925]}},{"type":"Feature","properties":{"STATION":"CRANBOURNE","COM_CAPAC":"683","X":"145.280595","Y":"-38.09954"},"geometry":{"type":"Point","coordinates":[145.280595,-38.09954]}},{"type":"Feature","properties":{"STATION":"CRIB POINT","COM_CAPAC":"20","X":"145.204047","Y":"-38.36612"},"geometry":{"type":"Point","coordinates":[145.204047,-38.36612]}},{"type":"Feature","properties":{"STATION":"CROYDON","COM_CAPAC":"290","X":"145.280594","Y":"-37.795441"},"geometry":{"type":"Point","coordinates":[145.280594,-37.795441]}},{"type":"Feature","properties":{"STATION":"DANDENONG","COM_CAPAC":"438","X":"145.209728","Y":"-37.989968"},"geometry":{"type":"Point","coordinates":[145.209728,-37.989968]}},{"type":"Feature","properties":{"STATION":"DAREBIN","COM_CAPAC":"26","X":"145.038476","Y":"-37.774962"},"geometry":{"type":"Point","coordinates":[145.038476,-37.774962]}},{"type":"Feature","properties":{"STATION":"DARLING","COM_CAPAC":"309","X":"145.062946","Y":"-37.868956"},"geometry":{"type":"Point","coordinates":[145.062946,-37.868956]}},{"type":"Feature","properties":{"STATION":"DENNIS","COM_CAPAC":"36","X":"145.00824","Y":"-37.779183"},"geometry":{"type":"Point","coordinates":[145.00824,-37.779183]}},{"type":"Feature","properties":{"STATION":"DIAMOND CREEK","COM_CAPAC":"106","X":"145.158509","Y":"-37.673293"},"geometry":{"type":"Point","coordinates":[145.158509,-37.673293]}},{"type":"Feature","properties":{"STATION":"DIGGERS REST","COM_CAPAC":"548","X":"144.719918","Y":"-37.627013"},"geometry":{"type":"Point","coordinates":[144.719918,-37.627013]}},{"type":"Feature","properties":{"STATION":"EAGLEMONT","COM_CAPAC":"42","X":"145.053946","Y":"-37.763586"},"geometry":{"type":"Point","coordinates":[145.053946,-37.763586]}},{"type":"Feature","properties":{"STATION":"EAST CAMBERWELL","COM_CAPAC":"60","X":"145.068189","Y":"-37.825892"},"geometry":{"type":"Point","coordinates":[145.068189,-37.825892]}},{"type":"Feature","properties":{"STATION":"EAST MALVERN","COM_CAPAC":"676","X":"145.069397","Y":"-37.87693"},"geometry":{"type":"Point","coordinates":[145.069397,-37.87693]}},{"type":"Feature","properties":{"STATION":"EDITHVALE","COM_CAPAC":"34","X":"145.108539","Y":"-38.038054"},"geometry":{"type":"Point","coordinates":[145.108539,-38.038054]}},{"type":"Feature","properties":{"STATION":"ELSTERNWICK","COM_CAPAC":"156","X":"145.000902","Y":"-37.884752"},"geometry":{"type":"Point","coordinates":[145.000902,-37.884752]}},{"type":"Feature","properties":{"STATION":"ELTHAM","COM_CAPAC":"397","X":"145.147827","Y":"-37.713552"},"geometry":{"type":"Point","coordinates":[145.147827,-37.713552]}},{"type":"Feature","properties":{"STATION":"EPPING","COM_CAPAC":"263","X":"145.030118","Y":"-37.652388"},"geometry":{"type":"Point","coordinates":[145.030118,-37.652388]}},{"type":"Feature","properties":{"STATION":"ESSENDON","COM_CAPAC":"499","X":"144.916198","Y":"-37.756008"},"geometry":{"type":"Point","coordinates":[144.916198,-37.756008]}},{"type":"Feature","properties":{"STATION":"FAIRFIELD","COM_CAPAC":"106","X":"145.016903","Y":"-37.779174"},"geometry":{"type":"Point","coordinates":[145.016903,-37.779174]}},{"type":"Feature","properties":{"STATION":"FAWKNER","COM_CAPAC":"76","X":"144.960549","Y":"-37.714622"},"geometry":{"type":"Point","coordinates":[144.960549,-37.714622]}},{"type":"Feature","properties":{"STATION":"FERNTREE GULLY","COM_CAPAC":"278","X":"145.295254","Y":"-37.881697"},"geometry":{"type":"Point","coordinates":[145.295254,-37.881697]}},{"type":"Feature","properties":{"STATION":"FOOTSCRAY","COM_CAPAC":"161","X":"144.903194","Y":"-37.801085"},"geometry":{"type":"Point","coordinates":[144.903194,-37.801085]}},{"type":"Feature","properties":{"STATION":"FRANKSTON","COM_CAPAC":"413","X":"145.126166","Y":"-38.142987"},"geometry":{"type":"Point","coordinates":[145.126166,-38.142987]}},{"type":"Feature","properties":{"STATION":"GARDINER","COM_CAPAC":"220","X":"145.05166","Y":"-37.853283"},"geometry":{"type":"Point","coordinates":[145.05166,-37.853283]}},{"type":"Feature","properties":{"STATION":"GINIFER","COM_CAPAC":"157","X":"144.809571","Y":"-37.757509"},"geometry":{"type":"Point","coordinates":[144.809571,-37.757509]}},{"type":"Feature","properties":{"STATION":"GLEN IRIS","COM_CAPAC":"70","X":"145.058223","Y":"-37.859306"},"geometry":{"type":"Point","coordinates":[145.058223,-37.859306]}},{"type":"Feature","properties":{"STATION":"GLEN WAVERLEY","COM_CAPAC":"353","X":"145.162063","Y":"-37.879502"},"geometry":{"type":"Point","coordinates":[145.162063,-37.879502]}},{"type":"Feature","properties":{"STATION":"GLENBERVIE","COM_CAPAC":"63","X":"144.920944","Y":"-37.747214"},"geometry":{"type":"Point","coordinates":[144.920944,-37.747214]}},{"type":"Feature","properties":{"STATION":"GLENHUNTLY","COM_CAPAC":"175","X":"145.042218","Y":"-37.889717"},"geometry":{"type":"Point","coordinates":[145.042218,-37.889717]}},{"type":"Feature","properties":{"STATION":"GLENROY","COM_CAPAC":"618","X":"144.917219","Y":"-37.704534"},"geometry":{"type":"Point","coordinates":[144.917219,-37.704534]}},{"type":"Feature","properties":{"STATION":"GOWRIE","COM_CAPAC":"118","X":"144.958877","Y":"-37.700676"},"geometry":{"type":"Point","coordinates":[144.958877,-37.700676]}},{"type":"Feature","properties":{"STATION":"GREENSBOROUGH","COM_CAPAC":"212","X":"145.108249","Y":"-37.70395"},"geometry":{"type":"Point","coordinates":[145.108249,-37.70395]}},{"type":"Feature","properties":{"STATION":"HALLAM","COM_CAPAC":"590","X":"145.269773","Y":"-38.017743"},"geometry":{"type":"Point","coordinates":[145.269773,-38.017743]}},{"type":"Feature","properties":{"STATION":"HAMPTON","COM_CAPAC":"167","X":"145.001466","Y":"-37.937973"},"geometry":{"type":"Point","coordinates":[145.001466,-37.937973]}},{"type":"Feature","properties":{"STATION":"HASTINGS","COM_CAPAC":"20","X":"145.185979","Y":"-38.30566"},"geometry":{"type":"Point","coordinates":[145.185979,-38.30566]}},{"type":"Feature","properties":{"STATION":"HAWTHORN","COM_CAPAC":"11","X":"145.022897","Y":"-37.821824"},"geometry":{"type":"Point","coordinates":[145.022897,-37.821824]}},{"type":"Feature","properties":{"STATION":"HEATHERDALE","COM_CAPAC":"515","X":"145.212785","Y":"-37.818896"},"geometry":{"type":"Point","coordinates":[145.212785,-37.818896]}},{"type":"Feature","properties":{"STATION":"HEATHMONT","COM_CAPAC":"112","X":"145.244553","Y":"-37.828318"},"geometry":{"type":"Point","coordinates":[145.244553,-37.828318]}},{"type":"Feature","properties":{"STATION":"HEIDELBERG","COM_CAPAC":"300","X":"145.06069","Y":"-37.757075"},"geometry":{"type":"Point","coordinates":[145.06069,-37.757075]}},{"type":"Feature","properties":{"STATION":"HIGHETT","COM_CAPAC":"116","X":"145.041872","Y":"-37.948426"},"geometry":{"type":"Point","coordinates":[145.041872,-37.948426]}},{"type":"Feature","properties":{"STATION":"HOLMESGLEN","COM_CAPAC":"195","X":"145.090657","Y":"-37.874401"},"geometry":{"type":"Point","coordinates":[145.090657,-37.874401]}},{"type":"Feature","properties":{"STATION":"HOPPERS CROSSING","COM_CAPAC":"566","X":"144.70096","Y":"-37.883279"},"geometry":{"type":"Point","coordinates":[144.70096,-37.883279]}},{"type":"Feature","properties":{"STATION":"HUGHESDALE","COM_CAPAC":"70","X":"145.077639","Y":"-37.894877"},"geometry":{"type":"Point","coordinates":[145.077639,-37.894877]}},{"type":"Feature","properties":{"STATION":"HUNTINGDALE","COM_CAPAC":"438","X":"145.102364","Y":"-37.911017"},"geometry":{"type":"Point","coordinates":[145.102364,-37.911017]}},{"type":"Feature","properties":{"STATION":"HURSTBRIDGE","COM_CAPAC":"75","X":"145.192012","Y":"-37.639402"},"geometry":{"type":"Point","coordinates":[145.192012,-37.639402]}},{"type":"Feature","properties":{"STATION":"IVANHOE","COM_CAPAC":"297","X":"145.045426","Y":"-37.768898"},"geometry":{"type":"Point","coordinates":[145.045426,-37.768898]}},{"type":"Feature","properties":{"STATION":"JEWELL","COM_CAPAC":"36","X":"144.958715","Y":"-37.774984"},"geometry":{"type":"Point","coordinates":[144.958715,-37.774984]}},{"type":"Feature","properties":{"STATION":"JORDANVILLE","COM_CAPAC":"155","X":"145.112089","Y":"-37.873599"},"geometry":{"type":"Point","coordinates":[145.112089,-37.873599]}},{"type":"Feature","properties":{"STATION":"KANANOOK","COM_CAPAC":"136","X":"145.135291","Y":"-38.12174"},"geometry":{"type":"Point","coordinates":[145.135291,-38.12174]}},{"type":"Feature","properties":{"STATION":"KEILOR PLAINS","COM_CAPAC":"450","X":"144.793733","Y":"-37.729276"},"geometry":{"type":"Point","coordinates":[144.793733,-37.729276]}},{"type":"Feature","properties":{"STATION":"KEON PARK","COM_CAPAC":"154","X":"145.011883","Y":"-37.694867"},"geometry":{"type":"Point","coordinates":[145.011883,-37.694867]}},{"type":"Feature","properties":{"STATION":"KOOYONG","COM_CAPAC":"70","X":"145.03355","Y":"-37.839926"},"geometry":{"type":"Point","coordinates":[145.03355,-37.839926]}},{"type":"Feature","properties":{"STATION":"LABURNUM","COM_CAPAC":"40","X":"145.140705","Y":"-37.820777"},"geometry":{"type":"Point","coordinates":[145.140705,-37.820777]}},{"type":"Feature","properties":{"STATION":"LALOR","COM_CAPAC":"417","X":"145.017195","Y":"-37.665853"},"geometry":{"type":"Point","coordinates":[145.017195,-37.665853]}},{"type":"Feature","properties":{"STATION":"LAVERTON","COM_CAPAC":"947","X":"144.772615","Y":"-37.863693"},"geometry":{"type":"Point","coordinates":[144.772615,-37.863693]}},{"type":"Feature","properties":{"STATION":"LILYDALE","COM_CAPAC":"531","X":"145.347712","Y":"-37.755516"},"geometry":{"type":"Point","coordinates":[145.347712,-37.755516]}},{"type":"Feature","properties":{"STATION":"LYNBROOK","COM_CAPAC":"229","X":"145.24928","Y":"-38.057345"},"geometry":{"type":"Point","coordinates":[145.24928,-38.057345]}},{"type":"Feature","properties":{"STATION":"MACLEOD","COM_CAPAC":"102","X":"145.069147","Y":"-37.72601"},"geometry":{"type":"Point","coordinates":[145.069147,-37.72601]}},{"type":"Feature","properties":{"STATION":"MCKINNON","COM_CAPAC":"103","X":"145.038302","Y":"-37.910306"},"geometry":{"type":"Point","coordinates":[145.038302,-37.910306]}},{"type":"Feature","properties":{"STATION":"MENTONE","COM_CAPAC":"272","X":"145.065171","Y":"-37.981865"},"geometry":{"type":"Point","coordinates":[145.065171,-37.981865]}},{"type":"Feature","properties":{"STATION":"MERINDA PARK","COM_CAPAC":"204","X":"145.263507","Y":"-38.079003"},"geometry":{"type":"Point","coordinates":[145.263507,-38.079003]}},{"type":"Feature","properties":{"STATION":"MERLYNSTON","COM_CAPAC":"218","X":"144.961312","Y":"-37.720937"},"geometry":{"type":"Point","coordinates":[144.961312,-37.720937]}},{"type":"Feature","properties":{"STATION":"MERRI","COM_CAPAC":"6","X":"144.992976","Y":"-37.777843"},"geometry":{"type":"Point","coordinates":[144.992976,-37.777843]}},{"type":"Feature","properties":{"STATION":"MIDDLE BRIGHTON","COM_CAPAC":"120","X":"144.996298","Y":"-37.915135"},"geometry":{"type":"Point","coordinates":[144.996298,-37.915135]}},{"type":"Feature","properties":{"STATION":"MITCHAM","COM_CAPAC":"801","X":"145.191973","Y":"-37.818013"},"geometry":{"type":"Point","coordinates":[145.191973,-37.818013]}},{"type":"Feature","properties":{"STATION":"MONT ALBERT","COM_CAPAC":"26","X":"145.105533","Y":"-37.819427"},"geometry":{"type":"Point","coordinates":[145.105533,-37.819427]}},{"type":"Feature","properties":{"STATION":"MONTMORENCY","COM_CAPAC":"93","X":"145.121511","Y":"-37.715297"},"geometry":{"type":"Point","coordinates":[145.121511,-37.715297]}},{"type":"Feature","properties":{"STATION":"MOONEE PONDS","COM_CAPAC":"107","X":"144.919158","Y":"-37.765704"},"geometry":{"type":"Point","coordinates":[144.919158,-37.765704]}},{"type":"Feature","properties":{"STATION":"MOORABBIN","COM_CAPAC":"30","X":"145.036739","Y":"-37.934349"},"geometry":{"type":"Point","coordinates":[145.036739,-37.934349]}},{"type":"Feature","properties":{"STATION":"MOOROOLBARK","COM_CAPAC":"475","X":"145.312404","Y":"-37.784749"},"geometry":{"type":"Point","coordinates":[145.312404,-37.784749]}},{"type":"Feature","properties":{"STATION":"MORDIALLOC","COM_CAPAC":"210","X":"145.087656","Y":"-38.006587"},"geometry":{"type":"Point","coordinates":[145.087656,-38.006587]}},{"type":"Feature","properties":{"STATION":"MORELAND","COM_CAPAC":"196","X":"144.961823","Y":"-37.754481"},"geometry":{"type":"Point","coordinates":[144.961823,-37.754481]}},{"type":"Feature","properties":{"STATION":"MORRADOO","COM_CAPAC":"10","X":"145.189606","Y":"-38.354035"},"geometry":{"type":"Point","coordinates":[145.189606,-38.354035]}},{"type":"Feature","properties":{"STATION":"MOUNT WAVERLEY","COM_CAPAC":"214","X":"145.128057","Y":"-37.875251"},"geometry":{"type":"Point","coordinates":[145.128057,-37.875251]}},{"type":"Feature","properties":{"STATION":"MURRUMBEENA","COM_CAPAC":"292","X":"145.067378","Y":"-37.890196"},"geometry":{"type":"Point","coordinates":[145.067378,-37.890196]}},{"type":"Feature","properties":{"STATION":"NARRE WARREN","COM_CAPAC":"717","X":"145.303967","Y":"-38.027809"},"geometry":{"type":"Point","coordinates":[145.303967,-38.027809]}},{"type":"Feature","properties":{"STATION":"NEWPORT","COM_CAPAC":"310","X":"144.883604","Y":"-37.842714"},"geometry":{"type":"Point","coordinates":[144.883604,-37.842714]}},{"type":"Feature","properties":{"STATION":"NOBLE PARK","COM_CAPAC":"331","X":"145.176936","Y":"-37.967236"},"geometry":{"type":"Point","coordinates":[145.176936,-37.967236]}},{"type":"Feature","properties":{"STATION":"NORTH BRIGHTON","COM_CAPAC":"105","X":"145.002604","Y":"-37.904883"},"geometry":{"type":"Point","coordinates":[145.002604,-37.904883]}},{"type":"Feature","properties":{"STATION":"NORTH MELBOURNE","COM_CAPAC":"74","X":"144.941509","Y":"-37.806309"},"geometry":{"type":"Point","coordinates":[144.941509,-37.806309]}},{"type":"Feature","properties":{"STATION":"NORTH WILLIAMSTOWN","COM_CAPAC":"39","X":"144.889067","Y":"-37.85733"},"geometry":{"type":"Point","coordinates":[144.889067,-37.85733]}},{"type":"Feature","properties":{"STATION":"NORTHCOTE","COM_CAPAC":"5","X":"144.995282","Y":"-37.769865"},"geometry":{"type":"Point","coordinates":[144.995282,-37.769865]}},{"type":"Feature","properties":{"STATION":"NUNAWADING","COM_CAPAC":"204","X":"145.17489","Y":"-37.820599"},"geometry":{"type":"Point","coordinates":[145.17489,-37.820599]}},{"type":"Feature","properties":{"STATION":"OAK PARK","COM_CAPAC":"36","X":"144.921515","Y":"-37.717949"},"geometry":{"type":"Point","coordinates":[144.921515,-37.717949]}},{"type":"Feature","properties":{"STATION":"OAKLEIGH","COM_CAPAC":"339","X":"145.088313","Y":"-37.900368"},"geometry":{"type":"Point","coordinates":[145.088313,-37.900368]}},{"type":"Feature","properties":{"STATION":"OFFICER","COM_CAPAC":"100","X":"145.410992","Y":"-38.066142"},"geometry":{"type":"Point","coordinates":[145.410992,-38.066142]}},{"type":"Feature","properties":{"STATION":"ORMOND","COM_CAPAC":"153","X":"145.039608","Y":"-37.903211"},"geometry":{"type":"Point","coordinates":[145.039608,-37.903211]}},{"type":"Feature","properties":{"STATION":"PAKENHAM","COM_CAPAC":"364","X":"145.486374","Y":"-38.080612"},"geometry":{"type":"Point","coordinates":[145.486374,-38.080612]}},{"type":"Feature","properties":{"STATION":"PASCOE VALE","COM_CAPAC":"122","X":"144.928194","Y":"-37.730754"},"geometry":{"type":"Point","coordinates":[144.928194,-37.730754]}},{"type":"Feature","properties":{"STATION":"PATTERSON","COM_CAPAC":"48","X":"145.035468","Y":"-37.925146"},"geometry":{"type":"Point","coordinates":[145.035468,-37.925146]}},{"type":"Feature","properties":{"STATION":"PRESTON","COM_CAPAC":"261","X":"145.000527","Y":"-37.738674"},"geometry":{"type":"Point","coordinates":[145.000527,-37.738674]}},{"type":"Feature","properties":{"STATION":"REGENT","COM_CAPAC":"159","X":"145.002771","Y":"-37.7284"},"geometry":{"type":"Point","coordinates":[145.002771,-37.7284]}},{"type":"Feature","properties":{"STATION":"RESERVOIR","COM_CAPAC":"495","X":"145.006993","Y":"-37.716889"},"geometry":{"type":"Point","coordinates":[145.006993,-37.716889]}},{"type":"Feature","properties":{"STATION":"RINGWOOD","COM_CAPAC":"256","X":"145.22897","Y":"-37.81589"},"geometry":{"type":"Point","coordinates":[145.22897,-37.81589]}},{"type":"Feature","properties":{"STATION":"RINGWOOD EAST","COM_CAPAC":"460","X":"145.250193","Y":"-37.811968"},"geometry":{"type":"Point","coordinates":[145.250193,-37.811968]}},{"type":"Feature","properties":{"STATION":"RIVERSDALE","COM_CAPAC":"139","X":"145.069648","Y":"-37.831502"},"geometry":{"type":"Point","coordinates":[145.069648,-37.831502]}},{"type":"Feature","properties":{"STATION":"ROSANNA","COM_CAPAC":"241","X":"145.06614","Y":"-37.742875"},"geometry":{"type":"Point","coordinates":[145.06614,-37.742875]}},{"type":"Feature","properties":{"STATION":"ROXBURGH PARK","COM_CAPAC":"347","X":"144.935407","Y":"-37.638233"},"geometry":{"type":"Point","coordinates":[144.935407,-37.638233]}},{"type":"Feature","properties":{"STATION":"RUTHVEN","COM_CAPAC":"125","X":"145.009514","Y":"-37.707899"},"geometry":{"type":"Point","coordinates":[145.009514,-37.707899]}},{"type":"Feature","properties":{"STATION":"SANDOWN PARK","COM_CAPAC":"560","X":"145.162823","Y":"-37.956501"},"geometry":{"type":"Point","coordinates":[145.162823,-37.956501]}},{"type":"Feature","properties":{"STATION":"SANDRINGHAM","COM_CAPAC":"122","X":"145.004566","Y":"-37.950328"},"geometry":{"type":"Point","coordinates":[145.004566,-37.950328]}},{"type":"Feature","properties":{"STATION":"SEAFORD","COM_CAPAC":"477","X":"145.128228","Y":"-38.104017"},"geometry":{"type":"Point","coordinates":[145.128228,-38.104017]}},{"type":"Feature","properties":{"STATION":"SEAHOLME","COM_CAPAC":"7","X":"144.840957","Y":"-37.867843"},"geometry":{"type":"Point","coordinates":[144.840957,-37.867843]}},{"type":"Feature","properties":{"STATION":"SOMERVILLE","COM_CAPAC":"70","X":"145.176246","Y":"-38.225341"},"geometry":{"type":"Point","coordinates":[145.176246,-38.225341]}},{"type":"Feature","properties":{"STATION":"SOUTH MORANG","COM_CAPAC":"444","X":"145.067038","Y":"-37.649161"},"geometry":{"type":"Point","coordinates":[145.067038,-37.649161]}},{"type":"Feature","properties":{"STATION":"SPOTSWOOD","COM_CAPAC":"25","X":"144.885935","Y":"-37.830635"},"geometry":{"type":"Point","coordinates":[144.885935,-37.830635]}},{"type":"Feature","properties":{"STATION":"SPRINGVALE","COM_CAPAC":"217","X":"145.153451","Y":"-37.949512"},"geometry":{"type":"Point","coordinates":[145.153451,-37.949512]}},{"type":"Feature","properties":{"STATION":"ST ALBANS","COM_CAPAC":"540","X":"144.800055","Y":"-37.744859"},"geometry":{"type":"Point","coordinates":[144.800055,-37.744859]}},{"type":"Feature","properties":{"STATION":"STH KENSINGTON","COM_CAPAC":"6","X":"144.925469","Y":"-37.799533"},"geometry":{"type":"Point","coordinates":[144.925469,-37.799533]}},{"type":"Feature","properties":{"STATION":"STONY POINT","COM_CAPAC":"8","X":"145.221842","Y":"-38.374238"},"geometry":{"type":"Point","coordinates":[145.221842,-38.374238]}},{"type":"Feature","properties":{"STATION":"STRATHMORE","COM_CAPAC":"99","X":"144.92732","Y":"-37.743593"},"geometry":{"type":"Point","coordinates":[144.92732,-37.743593]}},{"type":"Feature","properties":{"STATION":"SUNBURY","COM_CAPAC":"565","X":"144.72732","Y":"-37.579092"},"geometry":{"type":"Point","coordinates":[144.72732,-37.579092]}},{"type":"Feature","properties":{"STATION":"SUNSHINE","COM_CAPAC":"494","X":"144.83288","Y":"-37.788535"},"geometry":{"type":"Point","coordinates":[144.83288,-37.788535]}},{"type":"Feature","properties":{"STATION":"SURREY HILLS","COM_CAPAC":"357","X":"145.098778","Y":"-37.824144"},"geometry":{"type":"Point","coordinates":[145.098778,-37.824144]}},{"type":"Feature","properties":{"STATION":"SYNDAL","COM_CAPAC":"337","X":"145.149776","Y":"-37.876228"},"geometry":{"type":"Point","coordinates":[145.149776,-37.876228]}},{"type":"Feature","properties":{"STATION":"THOMASTOWN","COM_CAPAC":"395","X":"145.014284","Y":"-37.680335"},"geometry":{"type":"Point","coordinates":[145.014284,-37.680335]}},{"type":"Feature","properties":{"STATION":"TOORONGA","COM_CAPAC":"189","X":"145.041734","Y":"-37.84937"},"geometry":{"type":"Point","coordinates":[145.041734,-37.84937]}},{"type":"Feature","properties":{"STATION":"TOTTENHAM","COM_CAPAC":"237","X":"144.862948","Y":"-37.799255"},"geometry":{"type":"Point","coordinates":[144.862948,-37.799255]}},{"type":"Feature","properties":{"STATION":"TYABB","COM_CAPAC":"20","X":"145.186402","Y":"-38.259817"},"geometry":{"type":"Point","coordinates":[145.186402,-38.259817]}},{"type":"Feature","properties":{"STATION":"UPFIELD","COM_CAPAC":"165","X":"144.946745","Y":"-37.666076"},"geometry":{"type":"Point","coordinates":[144.946745,-37.666076]}},{"type":"Feature","properties":{"STATION":"UPPER FERNTREE GULLY","COM_CAPAC":"308","X":"145.307525","Y":"-37.892673"},"geometry":{"type":"Point","coordinates":[145.307525,-37.892673]}},{"type":"Feature","properties":{"STATION":"WATERGARDENS","COM_CAPAC":"712","X":"144.774186","Y":"-37.701128"},"geometry":{"type":"Point","coordinates":[144.774186,-37.701128]}},{"type":"Feature","properties":{"STATION":"WATSONIA","COM_CAPAC":"498","X":"145.083795","Y":"-37.710954"},"geometry":{"type":"Point","coordinates":[145.083795,-37.710954]}},{"type":"Feature","properties":{"STATION":"WATTLE GLEN","COM_CAPAC":"53","X":"145.181619","Y":"-37.663966"},"geometry":{"type":"Point","coordinates":[145.181619,-37.663966]}},{"type":"Feature","properties":{"STATION":"WERRIBEE","COM_CAPAC":"602","X":"144.661116","Y":"-37.899382"},"geometry":{"type":"Point","coordinates":[144.661116,-37.899382]}},{"type":"Feature","properties":{"STATION":"WEST FOOTSCRAY","COM_CAPAC":"410","X":"144.885327","Y":"-37.801812"},"geometry":{"type":"Point","coordinates":[144.885327,-37.801812]}},{"type":"Feature","properties":{"STATION":"WESTALL","COM_CAPAC":"270","X":"145.138834","Y":"-37.938492"},"geometry":{"type":"Point","coordinates":[145.138834,-37.938492]}},{"type":"Feature","properties":{"STATION":"WESTONA","COM_CAPAC":"78","X":"144.813489","Y":"-37.865165"},"geometry":{"type":"Point","coordinates":[144.813489,-37.865165]}},{"type":"Feature","properties":{"STATION":"WILLIAMS LANDING","COM_CAPAC":"516","X":"144.747446","Y":"-37.869868"},"geometry":{"type":"Point","coordinates":[144.747446,-37.869868]}},{"type":"Feature","properties":{"STATION":"WILLIAMSTOWN","COM_CAPAC":"13","X":"144.905324","Y":"-37.867754"},"geometry":{"type":"Point","coordinates":[144.905324,-37.867754]}},{"type":"Feature","properties":{"STATION":"WILLIAMSTOWN BEACH","COM_CAPAC":"74","X":"144.894487","Y":"-37.863982"},"geometry":{"type":"Point","coordinates":[144.894487,-37.863982]}},{"type":"Feature","properties":{"STATION":"YARRAMAN","COM_CAPAC":"255","X":"145.191597","Y":"-37.978253"},"geometry":{"type":"Point","coordinates":[145.191597,-37.978253]}}]}
